time,.header.seq,.header.stamp.secs,.header.stamp.nsecs,.header.frame_id,.latitude,.longitude,.altitude,.utm_easting,.utm_northing,.zone,.letter,.quality
2022/02/18/18:20:45.076544,219,1645226445,73777437,gps_data,42.33724333333333,-71.09256166666667,15.5,327613.45822320017,4689341.695261024,19,T,4
2022/02/18/18:20:46.080574,220,1645226446,78126907,gps_data,42.33724333333333,-71.09256166666667,15.5,327613.45822320017,4689341.695261024,19,T,4
2022/02/18/18:20:47.073036,221,1645226447,69780111,gps_data,42.33724333333333,-71.09256166666667,15.5,327613.45822320017,4689341.695261024,19,T,4
2022/02/18/18:20:48.084548,222,1645226448,82729101,gps_data,42.33724333333333,-71.09256166666667,15.5,327613.45822320017,4689341.695261024,19,T,4
2022/02/18/18:20:49.077354,223,1645226449,74248790,gps_data,42.33724333333333,-71.09256166666667,15.5,327613.45822320017,4689341.695261024,19,T,4
2022/02/18/18:20:50.087121,224,1645226450,84414482,gps_data,42.33724333333333,-71.09256166666667,15.6,327613.45822320017,4689341.695261024,19,T,4
2022/02/18/18:20:51.078201,225,1645226451,75850963,gps_data,42.33724333333333,-71.09256166666667,15.6,327613.45822320017,4689341.695261024,19,T,4
2022/02/18/18:20:52.090244,226,1645226452,88032722,gps_data,42.33724333333333,-71.09256166666667,15.6,327613.45822320017,4689341.695261024,19,T,4
2022/02/18/18:20:53.077871,227,1645226453,76609849,gps_data,42.33724333333333,-71.09256166666667,15.6,327613.45822320017,4689341.695261024,19,T,4
2022/02/18/18:20:54.088498,228,1645226454,87982892,gps_data,42.33724333333333,-71.09256166666667,15.6,327613.45822320017,4689341.695261024,19,T,4
2022/02/18/18:20:55.061757,229,1645226455,59182882,gps_data,42.33724333333333,-71.09256166666667,15.6,327613.45822320017,4689341.695261024,19,T,4
2022/02/18/18:20:56.098218,230,1645226456,95847368,gps_data,42.33724333333333,-71.09256166666667,15.6,327613.45822320017,4689341.695261024,19,T,4
2022/02/18/18:20:57.073801,231,1645226457,71462392,gps_data,42.33724333333333,-71.09256166666667,15.6,327613.45822320017,4689341.695261024,19,T,4
2022/02/18/18:20:58.085833,232,1645226458,83873033,gps_data,42.33724333333333,-71.09256166666667,15.6,327613.45822320017,4689341.695261024,19,T,4
2022/02/18/18:20:59.060171,233,1645226459,57576894,gps_data,42.33724333333333,-71.09256166666667,15.6,327613.45822320017,4689341.695261024,19,T,4
2022/02/18/18:21:00.091955,234,1645226460,91375112,gps_data,42.33724333333333,-71.09256166666667,15.6,327613.45822320017,4689341.695261024,19,T,4
2022/02/18/18:21:01.068472,235,1645226461,67102909,gps_data,42.33724333333333,-71.09256166666667,15.6,327613.45822320017,4689341.695261024,19,T,4
2022/02/18/18:21:02.080606,236,1645226462,79556465,gps_data,42.33724333333333,-71.09256166666667,15.6,327613.45822320017,4689341.695261024,19,T,4
2022/02/18/18:21:03.073230,237,1645226463,71871995,gps_data,42.33724333333333,-71.09256166666667,15.6,327613.45822320017,4689341.695261024,19,T,4
2022/02/18/18:21:04.081766,238,1645226464,80883026,gps_data,42.33724333333333,-71.09256166666667,15.6,327613.45822320017,4689341.695261024,19,T,4
2022/02/18/18:21:05.071860,239,1645226465,70119619,gps_data,42.33724333333333,-71.09256166666667,15.6,327613.45822320017,4689341.695261024,19,T,4
2022/02/18/18:21:06.084404,240,1645226466,82870960,gps_data,42.33724333333333,-71.09256166666667,15.6,327613.45822320017,4689341.695261024,19,T,4
2022/02/18/18:21:07.077071,241,1645226467,75473070,gps_data,42.33724333333333,-71.09256166666667,15.6,327613.45822320017,4689341.695261024,19,T,4
2022/02/18/18:21:08.089526,242,1645226468,88027954,gps_data,42.33724333333333,-71.09256166666667,15.6,327613.45822320017,4689341.695261024,19,T,4
2022/02/18/18:21:09.065721,243,1645226469,65118789,gps_data,42.33724333333333,-71.09256166666667,15.6,327613.45822320017,4689341.695261024,19,T,4
2022/02/18/18:21:10.096957,244,1645226470,95268964,gps_data,42.33724333333333,-71.09256166666667,15.6,327613.45822320017,4689341.695261024,19,T,4
2022/02/18/18:21:11.073251,245,1645226471,71640729,gps_data,42.33724333333333,-71.09256166666667,15.6,327613.45822320017,4689341.695261024,19,T,4
2022/02/18/18:21:12.090298,246,1645226472,88855981,gps_data,42.33724333333333,-71.09256166666667,15.6,327613.45822320017,4689341.695261024,19,T,4
2022/02/18/18:21:13.077745,247,1645226473,76215267,gps_data,42.33724333333333,-71.09256166666667,15.6,327613.45822320017,4689341.695261024,19,T,4
2022/02/18/18:21:14.093055,248,1645226474,90791940,gps_data,42.33724333333333,-71.09256166666667,15.6,327613.45822320017,4689341.695261024,19,T,4
2022/02/18/18:21:15.078875,249,1645226475,76819419,gps_data,42.33724333333333,-71.09256166666667,15.6,327613.45822320017,4689341.695261024,19,T,4
2022/02/18/18:21:16.092653,250,1645226476,90083122,gps_data,42.33724333333333,-71.09256166666667,15.6,327613.45822320017,4689341.695261024,19,T,4
2022/02/18/18:21:17.083911,251,1645226477,80657720,gps_data,42.33724333333333,-71.09256166666667,15.6,327613.45822320017,4689341.695261024,19,T,4
2022/02/18/18:21:18.093356,252,1645226478,91267824,gps_data,42.33724333333333,-71.09256166666667,15.7,327613.45822320017,4689341.695261024,19,T,4
2022/02/18/18:21:19.062037,253,1645226479,60333013,gps_data,42.33724333333333,-71.09256166666667,15.7,327613.45822320017,4689341.695261024,19,T,4
2022/02/18/18:21:20.095504,254,1645226480,94399452,gps_data,42.33724333333333,-71.09256166666667,15.7,327613.45822320017,4689341.695261024,19,T,4
2022/02/18/18:21:21.070464,255,1645226481,67953824,gps_data,42.33724333333333,-71.09256166666667,15.7,327613.45822320017,4689341.695261024,19,T,4
2022/02/18/18:21:22.087321,256,1645226482,85366964,gps_data,42.33724333333333,-71.09256166666667,15.7,327613.45822320017,4689341.695261024,19,T,4
2022/02/18/18:21:23.060098,257,1645226483,57516098,gps_data,42.33724333333333,-71.09256166666667,15.7,327613.45822320017,4689341.695261024,19,T,4
2022/02/18/18:21:24.094309,258,1645226484,93529462,gps_data,42.33724333333333,-71.09256166666667,15.7,327613.45822320017,4689341.695261024,19,T,4
2022/02/18/18:21:25.064722,259,1645226485,63997030,gps_data,42.33724333333333,-71.09256166666667,15.7,327613.45822320017,4689341.695261024,19,T,4
2022/02/18/18:21:26.081493,260,1645226486,79661369,gps_data,42.33724333333333,-71.09256166666667,15.7,327613.45822320017,4689341.695261024,19,T,4
2022/02/18/18:21:27.074900,261,1645226487,73113918,gps_data,42.33724333333333,-71.09256166666667,15.7,327613.45822320017,4689341.695261024,19,T,4
2022/02/18/18:21:28.084666,262,1645226488,83337068,gps_data,42.33724333333333,-71.09256166666667,15.7,327613.45822320017,4689341.695261024,19,T,4
2022/02/18/18:21:29.065900,263,1645226489,62010288,gps_data,42.33724333333333,-71.09256166666667,15.7,327613.45822320017,4689341.695261024,19,T,4
2022/02/18/18:21:30.098248,264,1645226490,96399784,gps_data,42.33724333333333,-71.09256166666667,15.7,327613.45822320017,4689341.695261024,19,T,4
2022/02/18/18:21:31.075559,265,1645226491,73756217,gps_data,42.33724333333333,-71.09256166666667,15.7,327613.45822320017,4689341.695261024,19,T,4
2022/02/18/18:21:32.088196,266,1645226492,86673736,gps_data,42.33724333333333,-71.09256166666667,15.7,327613.45822320017,4689341.695261024,19,T,4
2022/02/18/18:21:33.065207,267,1645226493,63397407,gps_data,42.33724333333333,-71.09256166666667,15.7,327613.45822320017,4689341.695261024,19,T,4
2022/02/18/18:21:34.099285,268,1645226494,98759412,gps_data,42.33724333333333,-71.09256166666667,15.7,327613.45822320017,4689341.695261024,19,T,4
2022/02/18/18:21:35.070777,269,1645226495,68022727,gps_data,42.33724333333333,-71.09256166666667,15.7,327613.45822320017,4689341.695261024,19,T,4
2022/02/18/18:21:36.087314,270,1645226496,84702491,gps_data,42.33724333333333,-71.09256166666667,15.7,327613.45822320017,4689341.695261024,19,T,4
2022/02/18/18:21:37.073014,271,1645226497,72368860,gps_data,42.33724333333333,-71.09256166666667,15.7,327613.45822320017,4689341.695261024,19,T,4
2022/02/18/18:21:38.090553,272,1645226498,88593959,gps_data,42.33724333333333,-71.09256166666667,15.7,327613.45822320017,4689341.695261024,19,T,4
2022/02/18/18:21:39.064370,273,1645226499,63796281,gps_data,42.33724333333333,-71.09256166666667,15.7,327613.45822320017,4689341.695261024,19,T,4
2022/02/18/18:21:40.095949,274,1645226500,95354795,gps_data,42.33724333333333,-71.09256166666667,15.7,327613.45822320017,4689341.695261024,19,T,4
2022/02/18/18:21:41.069986,275,1645226501,69472074,gps_data,42.33724333333333,-71.09256166666667,15.7,327613.45822320017,4689341.695261024,19,T,4
2022/02/18/18:21:42.081938,276,1645226502,81449508,gps_data,42.33724333333333,-71.09256166666667,15.7,327613.45822320017,4689341.695261024,19,T,4
2022/02/18/18:21:43.070510,277,1645226503,69885492,gps_data,42.33724333333333,-71.09256166666667,15.7,327613.45822320017,4689341.695261024,19,T,4
2022/02/18/18:21:44.085426,278,1645226504,84898471,gps_data,42.33724333333333,-71.09256166666667,15.7,327613.45822320017,4689341.695261024,19,T,4
2022/02/18/18:21:45.073659,279,1645226505,73197603,gps_data,42.33724333333333,-71.09256166666667,15.7,327613.45822320017,4689341.695261024,19,T,4
2022/02/18/18:21:46.101403,280,1645226506,99845170,gps_data,42.33724333333333,-71.09256166666667,15.7,327613.45822320017,4689341.695261024,19,T,4
2022/02/18/18:21:47.063206,281,1645226507,60760498,gps_data,42.33724333333333,-71.09256166666667,15.7,327613.45822320017,4689341.695261024,19,T,4
2022/02/18/18:21:48.091571,282,1645226508,90987682,gps_data,42.33724333333333,-71.09256166666667,15.7,327613.45822320017,4689341.695261024,19,T,4
2022/02/18/18:21:49.064623,283,1645226509,62277793,gps_data,42.33724333333333,-71.09256166666667,15.7,327613.45822320017,4689341.695261024,19,T,4
2022/02/18/18:21:50.098656,284,1645226510,96590757,gps_data,42.33724333333333,-71.09256166666667,15.7,327613.45822320017,4689341.695261024,19,T,4
2022/02/18/18:21:51.063964,285,1645226511,62432765,gps_data,42.33724333333333,-71.09256166666667,15.7,327613.45822320017,4689341.695261024,19,T,4
2022/02/18/18:21:52.095797,286,1645226512,93550443,gps_data,42.33724333333333,-71.09256166666667,15.7,327613.45822320017,4689341.695261024,19,T,4
2022/02/18/18:21:53.071686,287,1645226513,69342374,gps_data,42.33724333333333,-71.09256166666667,15.7,327613.45822320017,4689341.695261024,19,T,4
2022/02/18/18:21:54.102198,288,1645226514,100351810,gps_data,42.33724333333333,-71.09256166666667,15.7,327613.45822320017,4689341.695261024,19,T,4
2022/02/18/18:21:55.078591,289,1645226515,76178550,gps_data,42.33724333333333,-71.09256166666667,15.7,327613.45822320017,4689341.695261024,19,T,4
2022/02/18/18:21:56.097394,290,1645226516,95686912,gps_data,42.33724333333333,-71.09256166666667,15.7,327613.45822320017,4689341.695261024,19,T,4
2022/02/18/18:21:57.067586,291,1645226517,67007303,gps_data,42.33724333333333,-71.09256166666667,15.7,327613.45822320017,4689341.695261024,19,T,4
2022/02/18/18:21:58.083363,292,1645226518,82880258,gps_data,42.33724333333333,-71.09256166666667,15.7,327613.45822320017,4689341.695261024,19,T,4
2022/02/18/18:21:59.077385,293,1645226519,76807260,gps_data,42.33724333333333,-71.09256166666667,15.7,327613.45822320017,4689341.695261024,19,T,4
2022/02/18/18:22:00.091225,294,1645226520,90404748,gps_data,42.33724333333333,-71.09256166666667,15.7,327613.45822320017,4689341.695261024,19,T,4
2022/02/18/18:22:01.060928,295,1645226521,60293436,gps_data,42.33724333333333,-71.09256166666667,15.7,327613.45822320017,4689341.695261024,19,T,4
2022/02/18/18:22:02.096896,296,1645226522,94711065,gps_data,42.33724333333333,-71.09256166666667,15.7,327613.45822320017,4689341.695261024,19,T,4
2022/02/18/18:22:03.077375,297,1645226523,75808048,gps_data,42.33724333333333,-71.09256166666667,15.7,327613.45822320017,4689341.695261024,19,T,4
2022/02/18/18:22:04.091755,298,1645226524,90402364,gps_data,42.33724333333333,-71.09256166666667,15.7,327613.45822320017,4689341.695261024,19,T,4
2022/02/18/18:22:05.060039,299,1645226525,59405088,gps_data,42.33724333333333,-71.09256166666667,15.7,327613.45822320017,4689341.695261024,19,T,4
2022/02/18/18:22:06.090321,300,1645226526,89745521,gps_data,42.33724333333333,-71.09256,15.7,327613.59553000994,4689341.691882126,19,T,4
2022/02/18/18:22:07.066814,301,1645226527,66200256,gps_data,42.33724333333333,-71.09256,15.7,327613.59553000994,4689341.691882126,19,T,4
2022/02/18/18:22:08.083593,302,1645226528,83005428,gps_data,42.33724333333333,-71.09256,15.7,327613.59553000994,4689341.691882126,19,T,4
2022/02/18/18:22:09.081593,303,1645226529,78595399,gps_data,42.33724333333333,-71.09256,15.7,327613.59553000994,4689341.691882126,19,T,4
2022/02/18/18:22:10.094265,304,1645226530,92326402,gps_data,42.33724333333333,-71.09256,15.7,327613.59553000994,4689341.691882126,19,T,4
2022/02/18/18:22:11.074782,305,1645226531,72433233,gps_data,42.33724333333333,-71.09256,15.7,327613.59553000994,4689341.691882126,19,T,4
2022/02/18/18:22:12.092724,306,1645226532,90626001,gps_data,42.33724333333333,-71.09256,15.7,327613.59553000994,4689341.691882126,19,T,4
2022/02/18/18:22:13.072124,307,1645226533,69794416,gps_data,42.33724333333333,-71.09256,15.7,327613.59553000994,4689341.691882126,19,T,4
2022/02/18/18:22:14.089060,308,1645226534,87181091,gps_data,42.33724333333333,-71.09256,15.7,327613.59553000994,4689341.691882126,19,T,4
2022/02/18/18:22:15.064341,309,1645226535,61644315,gps_data,42.33724333333333,-71.09256,15.7,327613.59553000994,4689341.691882126,19,T,4
2022/02/18/18:22:16.092446,310,1645226536,90018510,gps_data,42.33724333333333,-71.09256,15.7,327613.59553000994,4689341.691882126,19,T,4
2022/02/18/18:22:17.069718,311,1645226537,67378759,gps_data,42.33724333333333,-71.09256,15.7,327613.59553000994,4689341.691882126,19,T,4
2022/02/18/18:22:18.104588,312,1645226538,101183652,gps_data,42.33724333333333,-71.09256,15.7,327613.59553000994,4689341.691882126,19,T,4
2022/02/18/18:22:19.080168,313,1645226539,77183008,gps_data,42.33724333333333,-71.09256,15.7,327613.59553000994,4689341.691882126,19,T,4
2022/02/18/18:22:20.093620,314,1645226540,91659069,gps_data,42.33724333333333,-71.09256,15.7,327613.59553000994,4689341.691882126,19,T,4
2022/02/18/18:22:21.071452,315,1645226541,70778608,gps_data,42.33724333333333,-71.09256,15.7,327613.59553000994,4689341.691882126,19,T,4
2022/02/18/18:22:22.105261,316,1645226542,102924585,gps_data,42.33724333333333,-71.09256,15.7,327613.59553000994,4689341.691882126,19,T,4
2022/02/18/18:22:23.077663,317,1645226543,76997518,gps_data,42.33724333333333,-71.09256,15.7,327613.59553000994,4689341.691882126,19,T,4
2022/02/18/18:22:24.095002,318,1645226544,94187021,gps_data,42.33724333333333,-71.09256,15.7,327613.59553000994,4689341.691882126,19,T,4
2022/02/18/18:22:25.069743,319,1645226545,69188356,gps_data,42.33724333333333,-71.09256,15.7,327613.59553000994,4689341.691882126,19,T,4
2022/02/18/18:22:26.082854,320,1645226546,80737352,gps_data,42.33724333333333,-71.09256,15.8,327613.59553000994,4689341.691882126,19,T,5
2022/02/18/18:22:27.078145,321,1645226547,75660943,gps_data,42.33724333333333,-71.09256,15.9,327613.59553000994,4689341.691882126,19,T,2
2022/02/18/18:22:28.087417,322,1645226548,86751461,gps_data,42.33724333333333,-71.09255833333333,16.0,327613.7328368218,4689341.68850323,19,T,2
2022/02/18/18:22:29.065562,323,1645226549,63623189,gps_data,42.33724333333333,-71.09255833333333,16.0,327613.7328368218,4689341.68850323,19,T,5
2022/02/18/18:22:30.087803,324,1645226550,85722923,gps_data,42.33724333333333,-71.09255833333333,16.0,327613.7328368218,4689341.68850323,19,T,5
2022/02/18/18:22:31.076719,325,1645226551,74237108,gps_data,42.33724333333333,-71.09255833333333,16.0,327613.7328368218,4689341.68850323,19,T,5
2022/02/18/18:22:32.088014,326,1645226552,85503816,gps_data,42.33724333333333,-71.09256,15.9,327613.59553000994,4689341.691882126,19,T,5
2022/02/18/18:22:33.063753,327,1645226553,63149213,gps_data,42.33724333333333,-71.09255833333333,15.9,327613.7328368218,4689341.68850323,19,T,5
2022/02/18/18:22:34.092123,328,1645226554,91676473,gps_data,42.33724333333333,-71.09255833333333,15.9,327613.7328368218,4689341.68850323,19,T,2
2022/02/18/18:22:35.083119,329,1645226555,81574916,gps_data,42.33724333333333,-71.09255833333333,16.0,327613.7328368218,4689341.68850323,19,T,5
2022/02/18/18:22:36.097373,330,1645226556,95963239,gps_data,42.33724333333333,-71.09256,16.1,327613.59553000994,4689341.691882126,19,T,5
2022/02/18/18:22:37.074756,331,1645226557,72284698,gps_data,42.33724333333333,-71.09256,16.1,327613.59553000994,4689341.691882126,19,T,5
2022/02/18/18:22:38.105358,332,1645226558,104690313,gps_data,42.33724333333333,-71.09255833333333,16.1,327613.7328368218,4689341.68850323,19,T,5
2022/02/18/18:22:39.080317,333,1645226559,77788114,gps_data,42.33724333333333,-71.09255833333333,15.9,327613.7328368218,4689341.68850323,19,T,2
2022/02/18/18:22:40.096026,334,1645226560,93411684,gps_data,42.33724333333333,-71.09255833333333,15.9,327613.7328368218,4689341.68850323,19,T,2
2022/02/18/18:22:41.072479,335,1645226561,70225238,gps_data,42.33724333333333,-71.09255833333333,15.9,327613.7328368218,4689341.68850323,19,T,5
2022/02/18/18:22:42.105002,336,1645226562,103372335,gps_data,42.33724333333333,-71.09255833333333,15.9,327613.7328368218,4689341.68850323,19,T,5
2022/02/18/18:22:43.060273,337,1645226563,59635639,gps_data,42.33724333333333,-71.09255833333333,15.9,327613.7328368218,4689341.68850323,19,T,5
2022/02/18/18:22:44.094719,338,1645226564,91630220,gps_data,42.33724333333333,-71.09256,16.0,327613.59553000994,4689341.691882126,19,T,5
2022/02/18/18:22:45.066029,339,1645226565,63788652,gps_data,42.33724333333333,-71.09256,16.0,327613.59553000994,4689341.691882126,19,T,5
2022/02/18/18:22:46.085669,340,1645226566,83463907,gps_data,42.33724333333333,-71.09255833333333,16.1,327613.7328368218,4689341.68850323,19,T,5
2022/02/18/18:22:47.079261,341,1645226567,78554868,gps_data,42.33724333333333,-71.09255833333333,16.1,327613.7328368218,4689341.68850323,19,T,5
2022/02/18/18:22:48.095855,342,1645226568,95189809,gps_data,42.33724333333333,-71.09255833333333,16.2,327613.7328368218,4689341.68850323,19,T,5
2022/02/18/18:22:49.075529,343,1645226569,74943780,gps_data,42.33724333333333,-71.09255833333333,16.2,327613.7328368218,4689341.68850323,19,T,5
2022/02/18/18:22:50.089056,344,1645226570,88395595,gps_data,42.33724333333333,-71.09256,16.2,327613.59553000994,4689341.691882126,19,T,5
2022/02/18/18:22:51.065491,345,1645226571,64788579,gps_data,42.33724333333333,-71.09256,16.2,327613.59553000994,4689341.691882126,19,T,5
2022/02/18/18:22:52.103359,346,1645226572,101082086,gps_data,42.33724333333333,-71.09256,16.2,327613.59553000994,4689341.691882126,19,T,5
2022/02/18/18:22:53.078600,347,1645226573,77961206,gps_data,42.33724333333333,-71.09256,16.2,327613.59553000994,4689341.691882126,19,T,5
2022/02/18/18:22:54.096378,348,1645226574,94336748,gps_data,42.33724333333333,-71.09256,16.2,327613.59553000994,4689341.691882126,19,T,5
2022/02/18/18:22:55.070949,349,1645226575,69228172,gps_data,42.33724333333333,-71.09256,16.2,327613.59553000994,4689341.691882126,19,T,5
2022/02/18/18:22:56.086970,350,1645226576,86321592,gps_data,42.33724333333333,-71.09256,16.2,327613.59553000994,4689341.691882126,19,T,5
2022/02/18/18:22:57.081204,351,1645226577,78872203,gps_data,42.33724333333333,-71.09256,16.2,327613.59553000994,4689341.691882126,19,T,5
2022/02/18/18:22:58.095480,352,1645226578,91557264,gps_data,42.33724333333333,-71.09256,16.1,327613.59553000994,4689341.691882126,19,T,5
2022/02/18/18:22:59.075415,353,1645226579,74631690,gps_data,42.337241666666664,-71.09256,16.0,327613.59097572305,4689341.506811454,19,T,5
2022/02/18/18:23:00.090077,354,1645226580,89280605,gps_data,42.337241666666664,-71.09256,15.9,327613.59097572305,4689341.506811454,19,T,5
2022/02/18/18:23:01.067390,355,1645226581,65079450,gps_data,42.337241666666664,-71.09256,15.8,327613.59097572305,4689341.506811454,19,T,5
2022/02/18/18:23:02.099567,356,1645226582,97665786,gps_data,42.337241666666664,-71.09256,15.7,327613.59097572305,4689341.506811454,19,T,5
2022/02/18/18:23:03.078892,357,1645226583,76593637,gps_data,42.337241666666664,-71.09256,15.7,327613.59097572305,4689341.506811454,19,T,5
2022/02/18/18:23:04.088951,358,1645226584,87262153,gps_data,42.337241666666664,-71.09256,15.6,327613.59097572305,4689341.506811454,19,T,5
2022/02/18/18:23:05.069006,359,1645226585,66303730,gps_data,42.337241666666664,-71.09256,15.6,327613.59097572305,4689341.506811454,19,T,5
2022/02/18/18:23:06.101470,360,1645226586,98992824,gps_data,42.337241666666664,-71.09256,15.6,327613.59097572305,4689341.506811454,19,T,5
2022/02/18/18:23:07.082197,361,1645226587,80070495,gps_data,42.33724,-71.09256,15.6,327613.5864214363,4689341.321740781,19,T,5
2022/02/18/18:23:08.093987,362,1645226588,92403888,gps_data,42.33724,-71.09256,15.7,327613.5864214363,4689341.321740781,19,T,5
2022/02/18/18:23:09.069860,363,1645226589,67268610,gps_data,42.33724,-71.09256,15.7,327613.5864214363,4689341.321740781,19,T,5
2022/02/18/18:23:10.102800,364,1645226590,100629568,gps_data,42.33724,-71.09256,15.8,327613.5864214363,4689341.321740781,19,T,5
2022/02/18/18:23:11.076986,365,1645226591,76333045,gps_data,42.33724,-71.09256166666667,15.8,327613.44911461923,4689341.325119679,19,T,5
2022/02/18/18:23:12.093302,366,1645226592,90714454,gps_data,42.33724,-71.09256166666667,15.8,327613.44911461923,4689341.325119679,19,T,5
2022/02/18/18:23:13.064026,367,1645226593,61418294,gps_data,42.33724,-71.09256166666667,15.8,327613.44911461923,4689341.325119679,19,T,5
2022/02/18/18:23:14.096535,368,1645226594,94559669,gps_data,42.33724,-71.09256166666667,15.8,327613.44911461923,4689341.325119679,19,T,5
2022/02/18/18:23:15.083682,369,1645226595,82759618,gps_data,42.33724,-71.09256166666667,15.7,327613.44911461923,4689341.325119679,19,T,5
2022/02/18/18:23:16.096099,370,1645226596,92721939,gps_data,42.33724,-71.09256166666667,15.7,327613.44911461923,4689341.325119679,19,T,5
2022/02/18/18:23:17.068093,371,1645226597,67564487,gps_data,42.33724,-71.09256166666667,15.6,327613.44911461923,4689341.325119679,19,T,5
2022/02/18/18:23:18.104878,372,1645226598,102726221,gps_data,42.33724,-71.09256166666667,15.6,327613.44911461923,4689341.325119679,19,T,5
2022/02/18/18:23:19.080390,373,1645226599,79561471,gps_data,42.33724,-71.09256166666667,15.5,327613.44911461923,4689341.325119679,19,T,5
2022/02/18/18:23:20.100514,374,1645226600,98055362,gps_data,42.33724,-71.09256166666667,15.5,327613.44911461923,4689341.325119679,19,T,5
2022/02/18/18:23:21.073828,375,1645226601,73050022,gps_data,42.33724,-71.09256333333333,15.4,327613.3118078022,4689341.328498579,19,T,5
2022/02/18/18:23:22.085866,376,1645226602,84388971,gps_data,42.33724,-71.09256333333333,15.4,327613.3118078022,4689341.328498579,19,T,5
2022/02/18/18:23:23.076720,377,1645226603,74525117,gps_data,42.33724,-71.09256333333333,15.3,327613.3118078022,4689341.328498579,19,T,5
2022/02/18/18:23:24.089961,378,1645226604,89215517,gps_data,42.33724,-71.09256166666667,15.3,327613.44911461923,4689341.325119679,19,T,5
2022/02/18/18:23:25.068022,379,1645226605,65898895,gps_data,42.33724,-71.09256166666667,15.2,327613.44911461923,4689341.325119679,19,T,5
2022/02/18/18:23:26.107892,380,1645226606,105720043,gps_data,42.33724,-71.09256166666667,15.0,327613.44911461923,4689341.325119679,19,T,5
2022/02/18/18:23:27.088629,381,1645226607,88080167,gps_data,42.33724,-71.09256166666667,14.9,327613.44911461923,4689341.325119679,19,T,5
2022/02/18/18:23:28.102959,382,1645226608,102484703,gps_data,42.33724,-71.09256166666667,14.7,327613.44911461923,4689341.325119679,19,T,5
2022/02/18/18:23:29.081511,383,1645226609,79352378,gps_data,42.33724,-71.09256166666667,14.5,327613.44911461923,4689341.325119679,19,T,5
2022/02/18/18:23:30.098486,384,1645226610,97950935,gps_data,42.33724,-71.09256166666667,14.3,327613.44911461923,4689341.325119679,19,T,5
2022/02/18/18:23:31.069392,385,1645226611,68838119,gps_data,42.33724,-71.09256,14.0,327613.5864214363,4689341.321740781,19,T,5
2022/02/18/18:23:32.088961,386,1645226612,86783170,gps_data,42.33724,-71.09256,13.9,327613.5864214363,4689341.321740781,19,T,5
2022/02/18/18:23:33.068881,387,1645226613,66578149,gps_data,42.33724,-71.09256,13.8,327613.5864214363,4689341.321740781,19,T,5
2022/02/18/18:23:34.103374,388,1645226614,101537466,gps_data,42.33724,-71.09256166666667,13.8,327613.44911461923,4689341.325119679,19,T,5
2022/02/18/18:23:35.077964,389,1645226615,76337814,gps_data,42.33724,-71.09256166666667,13.9,327613.44911461923,4689341.325119679,19,T,5
2022/02/18/18:23:36.093870,390,1645226616,93120574,gps_data,42.33723833333333,-71.09256166666667,13.9,327613.44456032896,4689341.140049006,19,T,5
2022/02/18/18:23:37.067604,391,1645226617,67020654,gps_data,42.33723833333333,-71.09256166666667,14.0,327613.44456032896,4689341.140049006,19,T,5
2022/02/18/18:23:38.101900,392,1645226618,101481914,gps_data,42.33723833333333,-71.09256166666667,14.1,327613.44456032896,4689341.140049006,19,T,5
2022/02/18/18:23:39.077034,393,1645226619,75085401,gps_data,42.33723833333333,-71.09256166666667,14.1,327613.44456032896,4689341.140049006,19,T,5
2022/02/18/18:23:40.096734,394,1645226620,93396902,gps_data,42.33723833333333,-71.09256166666667,14.1,327613.44456032896,4689341.140049006,19,T,5
2022/02/18/18:23:41.070202,395,1645226621,69610595,gps_data,42.33723833333333,-71.09256166666667,14.1,327613.44456032896,4689341.140049006,19,T,5
2022/02/18/18:23:42.105053,396,1645226622,103142976,gps_data,42.33723833333333,-71.09256,14.1,327613.5818671497,4689341.136670109,19,T,5
2022/02/18/18:23:43.077320,397,1645226623,76709747,gps_data,42.33724,-71.09256,14.1,327613.5864214363,4689341.321740781,19,T,5
2022/02/18/18:23:44.094845,398,1645226624,93861341,gps_data,42.33724,-71.09256,14.1,327613.5864214363,4689341.321740781,19,T,5
2022/02/18/18:23:45.077816,399,1645226625,74048757,gps_data,42.33724,-71.09256,14.1,327613.5864214363,4689341.321740781,19,T,5
2022/02/18/18:23:46.092736,400,1645226626,91627597,gps_data,42.33724,-71.09256,14.0,327613.5864214363,4689341.321740781,19,T,5
2022/02/18/18:23:47.067500,401,1645226627,65006732,gps_data,42.33724,-71.09256,13.9,327613.5864214363,4689341.321740781,19,T,5
2022/02/18/18:23:48.102743,402,1645226628,100251197,gps_data,42.33724,-71.09256,13.9,327613.5864214363,4689341.321740781,19,T,5
2022/02/18/18:23:49.072022,403,1645226629,71452140,gps_data,42.33724,-71.09255833333333,13.8,327613.72372825537,4689341.318361887,19,T,5
2022/02/18/18:23:50.101249,404,1645226630,99388599,gps_data,42.33724,-71.09255833333333,13.7,327613.72372825537,4689341.318361887,19,T,5
2022/02/18/18:23:51.071235,405,1645226631,70552349,gps_data,42.33724,-71.09255833333333,13.6,327613.72372825537,4689341.318361887,19,T,5
2022/02/18/18:23:52.103782,406,1645226632,103372812,gps_data,42.33724,-71.09255833333333,13.5,327613.72372825537,4689341.318361887,19,T,5
2022/02/18/18:23:53.076380,407,1645226633,74052810,gps_data,42.33724,-71.09255833333333,13.5,327613.72372825537,4689341.318361887,19,T,5
2022/02/18/18:23:54.106153,408,1645226634,104800224,gps_data,42.33723833333333,-71.09255833333333,13.4,327613.7191739724,4689341.133291214,19,T,5
2022/02/18/18:23:55.081448,409,1645226635,79204559,gps_data,42.33723833333333,-71.09255833333333,13.5,327613.7191739724,4689341.133291214,19,T,5
2022/02/18/18:23:56.096058,410,1645226636,93232870,gps_data,42.33723833333333,-71.09255833333333,13.4,327613.7191739724,4689341.133291214,19,T,5
2022/02/18/18:23:57.082496,411,1645226637,80941200,gps_data,42.33723833333333,-71.09255833333333,13.4,327613.7191739724,4689341.133291214,19,T,5
2022/02/18/18:23:58.099079,412,1645226638,97668409,gps_data,42.33723833333333,-71.09255833333333,13.3,327613.7191739724,4689341.133291214,19,T,5
2022/02/18/18:23:59.071960,413,1645226639,69405555,gps_data,42.33723833333333,-71.09255833333333,13.3,327613.7191739724,4689341.133291214,19,T,5
2022/02/18/18:24:00.116641,414,1645226640,114059209,gps_data,42.33723666666667,-71.09255833333333,13.3,327613.71461968956,4689340.948220543,19,T,5
2022/02/18/18:24:01.068845,415,1645226641,67350625,gps_data,42.33723666666667,-71.09255833333333,13.3,327613.71461968956,4689340.948220543,19,T,5
2022/02/18/18:24:02.107340,416,1645226642,103320598,gps_data,42.33723666666667,-71.09255833333333,13.3,327613.71461968956,4689340.948220543,19,T,5
2022/02/18/18:24:03.077711,417,1645226643,74185609,gps_data,42.33723666666667,-71.09255833333333,13.2,327613.71461968956,4689340.948220543,19,T,5
2022/02/18/18:24:04.106209,418,1645226644,104576349,gps_data,42.33723666666667,-71.09255833333333,13.2,327613.71461968956,4689340.948220543,19,T,5
2022/02/18/18:24:05.085088,419,1645226645,82285881,gps_data,42.33723666666667,-71.09255833333333,13.2,327613.71461968956,4689340.948220543,19,T,5
2022/02/18/18:24:06.092711,420,1645226646,90777873,gps_data,42.337235,-71.09256,13.6,327613.57275857683,4689340.766528763,19,T,4
2022/02/18/18:24:07.066818,421,1645226647,64619302,gps_data,42.337235,-71.09256,13.6,327613.57275857683,4689340.766528763,19,T,4
2022/02/18/18:24:08.120681,422,1645226648,119127988,gps_data,42.337235,-71.09256,13.6,327613.57275857683,4689340.766528763,19,T,4
2022/02/18/18:24:09.093892,423,1645226649,91743469,gps_data,42.337235,-71.09256,13.6,327613.57275857683,4689340.766528763,19,T,4
2022/02/18/18:24:10.103491,424,1645226650,101694345,gps_data,42.337235,-71.09256,13.6,327613.57275857683,4689340.766528763,19,T,4
2022/02/18/18:24:11.080176,425,1645226651,77565670,gps_data,42.337235,-71.09256,13.6,327613.57275857683,4689340.766528763,19,T,4
2022/02/18/18:24:12.112527,426,1645226652,111251354,gps_data,42.337235,-71.09256,13.6,327613.57275857683,4689340.766528763,19,T,4
2022/02/18/18:24:13.083932,427,1645226653,81174612,gps_data,42.337235,-71.09256,13.6,327613.57275857683,4689340.766528763,19,T,4
2022/02/18/18:24:14.117627,428,1645226654,116110324,gps_data,42.337235,-71.09256,13.6,327613.57275857683,4689340.766528763,19,T,4
2022/02/18/18:24:15.090734,429,1645226655,89306354,gps_data,42.337235,-71.09256,13.6,327613.57275857683,4689340.766528763,19,T,4
2022/02/18/18:24:16.106323,430,1645226656,103749990,gps_data,42.337235,-71.09256,13.6,327613.57275857683,4689340.766528763,19,T,4
2022/02/18/18:24:17.080220,431,1645226657,79732656,gps_data,42.337235,-71.09256,13.6,327613.57275857683,4689340.766528763,19,T,4
2022/02/18/18:24:18.108958,432,1645226658,108390092,gps_data,42.337235,-71.09256,13.6,327613.57275857683,4689340.766528763,19,T,4
2022/02/18/18:24:19.081910,433,1645226659,79144954,gps_data,42.337235,-71.09256,13.6,327613.57275857683,4689340.766528763,19,T,4
2022/02/18/18:24:20.107583,434,1645226660,106565952,gps_data,42.337235,-71.09256,13.6,327613.57275857683,4689340.766528763,19,T,4
2022/02/18/18:24:21.083477,435,1645226661,82825183,gps_data,42.337235,-71.09256,13.6,327613.57275857683,4689340.766528763,19,T,4
2022/02/18/18:24:22.114273,436,1645226662,113638162,gps_data,42.337235,-71.09256,13.6,327613.57275857683,4689340.766528763,19,T,4
2022/02/18/18:24:23.068242,437,1645226663,65861940,gps_data,42.337235,-71.09256,13.6,327613.57275857683,4689340.766528763,19,T,4
2022/02/18/18:24:24.102911,438,1645226664,102510690,gps_data,42.337235,-71.09256,13.6,327613.57275857683,4689340.766528763,19,T,4
2022/02/18/18:24:25.074973,439,1645226665,74240684,gps_data,42.337235,-71.09255833333333,13.5,327613.71006540686,4689340.763149868,19,T,4
2022/02/18/18:24:26.090374,440,1645226666,90025663,gps_data,42.337235,-71.09256,13.5,327613.57275857683,4689340.766528763,19,T,4
2022/02/18/18:24:27.079863,441,1645226667,78228950,gps_data,42.337235,-71.09255833333333,13.5,327613.71006540686,4689340.763149868,19,T,4
2022/02/18/18:24:28.096876,442,1645226668,96174478,gps_data,42.337235,-71.09255833333333,13.5,327613.71006540686,4689340.763149868,19,T,4
2022/02/18/18:24:29.075039,443,1645226669,72856903,gps_data,42.337235,-71.09255833333333,13.5,327613.71006540686,4689340.763149868,19,T,4
2022/02/18/18:24:30.104641,444,1645226670,104185342,gps_data,42.337235,-71.09255833333333,13.5,327613.71006540686,4689340.763149868,19,T,4
2022/02/18/18:24:31.068531,445,1645226671,67909479,gps_data,42.337235,-71.09256,13.5,327613.57275857683,4689340.766528763,19,T,4
2022/02/18/18:24:32.105313,446,1645226672,102789163,gps_data,42.337235,-71.09256,13.5,327613.57275857683,4689340.766528763,19,T,4
2022/02/18/18:24:33.081758,447,1645226673,79293489,gps_data,42.337235,-71.09256,13.5,327613.57275857683,4689340.766528763,19,T,4
2022/02/18/18:24:34.093236,448,1645226674,91004133,gps_data,42.337235,-71.09255833333333,13.5,327613.71006540686,4689340.763149868,19,T,4
2022/02/18/18:24:35.089622,449,1645226675,88035106,gps_data,42.337235,-71.09255833333333,13.5,327613.71006540686,4689340.763149868,19,T,4
2022/02/18/18:24:36.105217,450,1645226676,103429555,gps_data,42.337235,-71.09256,13.5,327613.57275857683,4689340.766528763,19,T,4
2022/02/18/18:24:37.074653,451,1645226677,74012517,gps_data,42.337235,-71.09255833333333,13.5,327613.71006540686,4689340.763149868,19,T,4
2022/02/18/18:24:38.105247,452,1645226678,103984355,gps_data,42.337235,-71.09255833333333,13.5,327613.71006540686,4689340.763149868,19,T,4
2022/02/18/18:24:39.080563,453,1645226679,80119848,gps_data,42.337235,-71.09255833333333,13.5,327613.71006540686,4689340.763149868,19,T,4
2022/02/18/18:24:40.099380,454,1645226680,97473621,gps_data,42.337235,-71.09255833333333,13.5,327613.71006540686,4689340.763149868,19,T,4
2022/02/18/18:24:41.094338,455,1645226681,92131376,gps_data,42.337235,-71.09255833333333,13.5,327613.71006540686,4689340.763149868,19,T,4
2022/02/18/18:24:42.102146,456,1645226682,100012540,gps_data,42.337235,-71.09255833333333,13.5,327613.71006540686,4689340.763149868,19,T,4
2022/02/18/18:24:43.077144,457,1645226683,75017452,gps_data,42.337235,-71.09255833333333,13.5,327613.71006540686,4689340.763149868,19,T,4
2022/02/18/18:24:44.091334,458,1645226684,90744733,gps_data,42.337235,-71.09255833333333,13.5,327613.71006540686,4689340.763149868,19,T,4
2022/02/18/18:24:45.080207,459,1645226685,78634262,gps_data,42.337235,-71.09255833333333,13.5,327613.71006540686,4689340.763149868,19,T,4
2022/02/18/18:24:46.100359,460,1645226686,96149206,gps_data,42.337235,-71.09255833333333,13.5,327613.71006540686,4689340.763149868,19,T,4
2022/02/18/18:24:47.068845,461,1645226687,68372011,gps_data,42.337235,-71.09255833333333,13.5,327613.71006540686,4689340.763149868,19,T,4
2022/02/18/18:24:48.103944,462,1645226688,103335380,gps_data,42.337235,-71.09255833333333,13.5,327613.71006540686,4689340.763149868,19,T,4
2022/02/18/18:24:49.078671,463,1645226689,76610088,gps_data,42.337235,-71.09255833333333,13.5,327613.71006540686,4689340.763149868,19,T,4
2022/02/18/18:24:50.093039,464,1645226690,91519117,gps_data,42.337235,-71.09255833333333,13.5,327613.71006540686,4689340.763149868,19,T,4
2022/02/18/18:24:51.068327,465,1645226691,67852973,gps_data,42.337235,-71.09255833333333,13.5,327613.71006540686,4689340.763149868,19,T,4
2022/02/18/18:24:52.087917,466,1645226692,85304975,gps_data,42.337235,-71.09255833333333,13.5,327613.71006540686,4689340.763149868,19,T,4
2022/02/18/18:24:53.086255,467,1645226693,83676576,gps_data,42.337235,-71.09255833333333,13.5,327613.71006540686,4689340.763149868,19,T,4
2022/02/18/18:24:54.095464,468,1645226694,92766284,gps_data,42.337235,-71.09255833333333,13.5,327613.71006540686,4689340.763149868,19,T,4
2022/02/18/18:24:55.071074,469,1645226695,68768978,gps_data,42.337235,-71.09255833333333,13.5,327613.71006540686,4689340.763149868,19,T,4
2022/02/18/18:24:56.108672,470,1645226696,106246948,gps_data,42.337235,-71.09255833333333,13.5,327613.71006540686,4689340.763149868,19,T,4
2022/02/18/18:24:57.082767,471,1645226697,81121683,gps_data,42.337235,-71.09255833333333,13.5,327613.71006540686,4689340.763149868,19,T,4
2022/02/18/18:24:58.097601,472,1645226698,96274137,gps_data,42.337235,-71.09255833333333,13.5,327613.71006540686,4689340.763149868,19,T,4
2022/02/18/18:24:59.074472,473,1645226699,73834419,gps_data,42.337235,-71.09255833333333,13.5,327613.71006540686,4689340.763149868,19,T,4
2022/02/18/18:25:00.110116,474,1645226700,109381675,gps_data,42.337235,-71.09255833333333,13.5,327613.71006540686,4689340.763149868,19,T,4
2022/02/18/18:25:01.066829,475,1645226701,64291954,gps_data,42.337235,-71.09255833333333,13.5,327613.71006540686,4689340.763149868,19,T,4
2022/02/18/18:25:02.102991,476,1645226702,100650310,gps_data,42.337235,-71.09255833333333,13.5,327613.71006540686,4689340.763149868,19,T,4
2022/02/18/18:25:03.075292,477,1645226703,74543952,gps_data,42.337235,-71.09255833333333,13.5,327613.71006540686,4689340.763149868,19,T,4
2022/02/18/18:25:04.107476,478,1645226704,105073690,gps_data,42.337235,-71.09255833333333,13.5,327613.71006540686,4689340.763149868,19,T,4
2022/02/18/18:25:05.078296,479,1645226705,76882600,gps_data,42.337235,-71.09255833333333,13.5,327613.71006540686,4689340.763149868,19,T,4
2022/02/18/18:25:06.095794,480,1645226706,95275163,gps_data,42.337235,-71.09255833333333,13.5,327613.71006540686,4689340.763149868,19,T,4
2022/02/18/18:25:07.077328,481,1645226707,75082540,gps_data,42.337235,-71.09255833333333,13.5,327613.71006540686,4689340.763149868,19,T,4
2022/02/18/18:25:08.113240,482,1645226708,111215353,gps_data,42.337235,-71.09255833333333,13.5,327613.71006540686,4689340.763149868,19,T,4
2022/02/18/18:25:09.088261,483,1645226709,85368871,gps_data,42.337235,-71.09255833333333,13.5,327613.71006540686,4689340.763149868,19,T,4
2022/02/18/18:25:10.103508,484,1645226710,100974798,gps_data,42.337235,-71.09255833333333,13.5,327613.71006540686,4689340.763149868,19,T,4
2022/02/18/18:25:11.077571,485,1645226711,76227188,gps_data,42.337235,-71.09255833333333,13.5,327613.71006540686,4689340.763149868,19,T,4
2022/02/18/18:25:12.116993,486,1645226712,113819837,gps_data,42.337235,-71.09255833333333,13.4,327613.71006540686,4689340.763149868,19,T,4
2022/02/18/18:25:13.069881,487,1645226713,67468643,gps_data,42.337235,-71.09255833333333,13.4,327613.71006540686,4689340.763149868,19,T,4
2022/02/18/18:25:14.107676,488,1645226714,105166435,gps_data,42.337235,-71.09255833333333,13.4,327613.71006540686,4689340.763149868,19,T,4
2022/02/18/18:25:15.084703,489,1645226715,82952260,gps_data,42.337235,-71.09255833333333,13.4,327613.71006540686,4689340.763149868,19,T,4
2022/02/18/18:25:16.105082,490,1645226716,103175878,gps_data,42.337235,-71.09255833333333,13.5,327613.71006540686,4689340.763149868,19,T,4
2022/02/18/18:25:17.079635,491,1645226717,76375722,gps_data,42.337235,-71.09255833333333,13.5,327613.71006540686,4689340.763149868,19,T,4
2022/02/18/18:25:18.094580,492,1645226718,92349767,gps_data,42.337235,-71.09255833333333,13.5,327613.71006540686,4689340.763149868,19,T,4
2022/02/18/18:25:19.069918,493,1645226719,68441152,gps_data,42.337235,-71.09255833333333,13.5,327613.71006540686,4689340.763149868,19,T,4
2022/02/18/18:25:20.110454,494,1645226720,107775688,gps_data,42.337235,-71.09255833333333,13.5,327613.71006540686,4689340.763149868,19,T,4
2022/02/18/18:25:21.091619,495,1645226721,88993310,gps_data,42.337235,-71.09255833333333,13.5,327613.71006540686,4689340.763149868,19,T,4
2022/02/18/18:25:22.106810,496,1645226722,106169462,gps_data,42.337235,-71.09255833333333,13.5,327613.71006540686,4689340.763149868,19,T,4
2022/02/18/18:25:23.085037,497,1645226723,83657026,gps_data,42.337235,-71.09255833333333,13.5,327613.71006540686,4689340.763149868,19,T,4
2022/02/18/18:25:24.100466,498,1645226724,97919225,gps_data,42.337235,-71.09255833333333,13.4,327613.71006540686,4689340.763149868,19,T,4
2022/02/18/18:25:25.076926,499,1645226725,75282335,gps_data,42.337235,-71.09255833333333,13.5,327613.71006540686,4689340.763149868,19,T,4
2022/02/18/18:25:26.094046,500,1645226726,92109918,gps_data,42.337235,-71.09255833333333,13.4,327613.71006540686,4689340.763149868,19,T,4
2022/02/18/18:25:27.072934,501,1645226727,71389913,gps_data,42.337235,-71.09255833333333,13.4,327613.71006540686,4689340.763149868,19,T,4
2022/02/18/18:25:28.107219,502,1645226728,106593370,gps_data,42.337235,-71.09255833333333,13.4,327613.71006540686,4689340.763149868,19,T,4
2022/02/18/18:25:29.080719,503,1645226729,78374862,gps_data,42.337235,-71.09255833333333,13.4,327613.71006540686,4689340.763149868,19,T,4
2022/02/18/18:25:30.117400,504,1645226730,115692853,gps_data,42.337235,-71.09255833333333,13.4,327613.71006540686,4689340.763149868,19,T,4
2022/02/18/18:25:31.071298,505,1645226731,68873643,gps_data,42.337235,-71.09255833333333,13.4,327613.71006540686,4689340.763149868,19,T,4
2022/02/18/18:25:32.103129,506,1645226732,102357149,gps_data,42.337235,-71.09255833333333,13.4,327613.71006540686,4689340.763149868,19,T,4
2022/02/18/18:25:33.081522,507,1645226733,79325437,gps_data,42.337235,-71.09255833333333,13.4,327613.71006540686,4689340.763149868,19,T,4
2022/02/18/18:25:34.095737,508,1645226734,93315601,gps_data,42.337235,-71.09255833333333,13.4,327613.71006540686,4689340.763149868,19,T,4
2022/02/18/18:25:35.069621,509,1645226735,65913915,gps_data,42.337235,-71.09255833333333,13.4,327613.71006540686,4689340.763149868,19,T,4
2022/02/18/18:25:36.121959,510,1645226736,119764566,gps_data,42.337235,-71.09255833333333,13.4,327613.71006540686,4689340.763149868,19,T,4
2022/02/18/18:25:37.072159,511,1645226737,71558952,gps_data,42.337235,-71.09255833333333,13.4,327613.71006540686,4689340.763149868,19,T,4
2022/02/18/18:25:38.108654,512,1645226738,106685161,gps_data,42.337235,-71.09255833333333,13.4,327613.71006540686,4689340.763149868,19,T,4
2022/02/18/18:25:39.082154,513,1645226739,79798936,gps_data,42.337235,-71.09255833333333,13.4,327613.71006540686,4689340.763149868,19,T,4
2022/02/18/18:25:40.098610,514,1645226740,96174478,gps_data,42.337235,-71.09255833333333,13.4,327613.71006540686,4689340.763149868,19,T,4
2022/02/18/18:25:41.066396,515,1645226741,65793037,gps_data,42.337235,-71.09255833333333,13.4,327613.71006540686,4689340.763149868,19,T,4
2022/02/18/18:25:42.105363,516,1645226742,104972362,gps_data,42.337235,-71.09255833333333,13.4,327613.71006540686,4689340.763149868,19,T,4
2022/02/18/18:25:43.082557,517,1645226743,80034017,gps_data,42.337235,-71.09255833333333,13.5,327613.71006540686,4689340.763149868,19,T,4
2022/02/18/18:25:44.099830,518,1645226744,97292661,gps_data,42.337235,-71.09255833333333,13.4,327613.71006540686,4689340.763149868,19,T,4
2022/02/18/18:25:45.073702,519,1645226745,71222543,gps_data,42.337235,-71.09255833333333,13.4,327613.71006540686,4689340.763149868,19,T,4
2022/02/18/18:25:46.092178,520,1645226746,90813159,gps_data,42.337235,-71.09255833333333,13.4,327613.71006540686,4689340.763149868,19,T,4
2022/02/18/18:25:47.088150,521,1645226747,85614681,gps_data,42.337235,-71.09255833333333,13.4,327613.71006540686,4689340.763149868,19,T,4
2022/02/18/18:25:48.106915,522,1645226748,104645490,gps_data,42.337235,-71.09255833333333,13.4,327613.71006540686,4689340.763149868,19,T,4
2022/02/18/18:25:49.080360,523,1645226749,78112602,gps_data,42.337235,-71.09255833333333,13.4,327613.71006540686,4689340.763149868,19,T,4
2022/02/18/18:25:50.101871,524,1645226750,99300146,gps_data,42.337235,-71.09255833333333,13.5,327613.71006540686,4689340.763149868,19,T,4
2022/02/18/18:25:51.078082,525,1645226751,75410366,gps_data,42.337235,-71.09255833333333,13.5,327613.71006540686,4689340.763149868,19,T,4
2022/02/18/18:25:52.113174,526,1645226752,110306978,gps_data,42.337235,-71.09255833333333,13.5,327613.71006540686,4689340.763149868,19,T,4
2022/02/18/18:25:53.085522,527,1645226753,84813356,gps_data,42.337235,-71.09255833333333,13.5,327613.71006540686,4689340.763149868,19,T,4
2022/02/18/18:25:54.106091,528,1645226754,104745864,gps_data,42.337235,-71.09255833333333,13.5,327613.71006540686,4689340.763149868,19,T,4
2022/02/18/18:25:55.080848,529,1645226755,79362154,gps_data,42.337235,-71.09255833333333,13.4,327613.71006540686,4689340.763149868,19,T,4
2022/02/18/18:25:56.102716,530,1645226756,100507736,gps_data,42.337235,-71.09255833333333,13.5,327613.71006540686,4689340.763149868,19,T,4
2022/02/18/18:25:57.077212,531,1645226757,75131177,gps_data,42.337235,-71.09255833333333,13.5,327613.71006540686,4689340.763149868,19,T,4
2022/02/18/18:25:58.112091,532,1645226758,109886646,gps_data,42.337235,-71.09255833333333,13.5,327613.71006540686,4689340.763149868,19,T,4
2022/02/18/18:25:59.083476,533,1645226759,81878185,gps_data,42.337235,-71.09255833333333,13.5,327613.71006540686,4689340.763149868,19,T,4
2022/02/18/18:26:00.100037,534,1645226760,98284959,gps_data,42.337235,-71.09255833333333,13.5,327613.71006540686,4689340.763149868,19,T,4
2022/02/18/18:26:01.073961,535,1645226761,72670221,gps_data,42.337235,-71.09255833333333,13.5,327613.71006540686,4689340.763149868,19,T,4
2022/02/18/18:26:02.114469,536,1645226762,112546205,gps_data,42.337235,-71.09255833333333,13.5,327613.71006540686,4689340.763149868,19,T,4
2022/02/18/18:26:03.084567,537,1645226763,82077741,gps_data,42.337235,-71.09255833333333,13.5,327613.71006540686,4689340.763149868,19,T,4
2022/02/18/18:26:04.105148,538,1645226764,102804422,gps_data,42.337235,-71.09255833333333,13.5,327613.71006540686,4689340.763149868,19,T,4
2022/02/18/18:26:05.078618,539,1645226765,76241493,gps_data,42.337235,-71.09255833333333,13.5,327613.71006540686,4689340.763149868,19,T,4
2022/02/18/18:26:06.116084,540,1645226766,113757371,gps_data,42.337235,-71.09255833333333,13.5,327613.71006540686,4689340.763149868,19,T,4
2022/02/18/18:26:07.069847,541,1645226767,68449497,gps_data,42.337235,-71.09255833333333,13.5,327613.71006540686,4689340.763149868,19,T,4
2022/02/18/18:26:08.106879,542,1645226768,104854822,gps_data,42.337235,-71.09255833333333,13.5,327613.71006540686,4689340.763149868,19,T,4
2022/02/18/18:26:09.073975,543,1645226769,72458982,gps_data,42.337235,-71.09255833333333,13.5,327613.71006540686,4689340.763149868,19,T,4
2022/02/18/18:26:10.109308,544,1645226770,107927799,gps_data,42.337235,-71.09255833333333,13.5,327613.71006540686,4689340.763149868,19,T,4
2022/02/18/18:26:11.082151,545,1645226771,81585168,gps_data,42.337235,-71.09255833333333,13.5,327613.71006540686,4689340.763149868,19,T,4
2022/02/18/18:26:12.101731,546,1645226772,101255893,gps_data,42.337235,-71.09255833333333,13.5,327613.71006540686,4689340.763149868,19,T,4
2022/02/18/18:26:13.077124,547,1645226773,74863672,gps_data,42.337235,-71.09255833333333,13.5,327613.71006540686,4689340.763149868,19,T,4
2022/02/18/18:26:14.096611,548,1645226774,96039533,gps_data,42.337235,-71.09255833333333,13.5,327613.71006540686,4689340.763149868,19,T,4
2022/02/18/18:26:15.076982,549,1645226775,76451539,gps_data,42.337235,-71.09255833333333,13.5,327613.71006540686,4689340.763149868,19,T,4
2022/02/18/18:26:16.100358,550,1645226776,98521232,gps_data,42.337235,-71.09255833333333,13.5,327613.71006540686,4689340.763149868,19,T,4
2022/02/18/18:26:17.077223,551,1645226777,74422836,gps_data,42.337235,-71.09255833333333,13.5,327613.71006540686,4689340.763149868,19,T,4
2022/02/18/18:26:18.109178,552,1645226778,107378721,gps_data,42.337235,-71.09255833333333,13.4,327613.71006540686,4689340.763149868,19,T,4
2022/02/18/18:26:19.083485,553,1645226779,81032991,gps_data,42.337235,-71.09255833333333,13.5,327613.71006540686,4689340.763149868,19,T,4
2022/02/18/18:26:20.096134,554,1645226780,95646858,gps_data,42.337235,-71.09255833333333,13.5,327613.71006540686,4689340.763149868,19,T,4
2022/02/18/18:26:21.069721,555,1645226781,67337036,gps_data,42.337235,-71.09255833333333,13.5,327613.71006540686,4689340.763149868,19,T,4
2022/02/18/18:26:22.101599,556,1645226782,98860025,gps_data,42.337235,-71.09255833333333,13.4,327613.71006540686,4689340.763149868,19,T,4
2022/02/18/18:26:23.073998,557,1645226783,73264837,gps_data,42.337235,-71.09255833333333,13.4,327613.71006540686,4689340.763149868,19,T,4
2022/02/18/18:26:24.113254,558,1645226784,109521627,gps_data,42.337235,-71.09255833333333,13.5,327613.71006540686,4689340.763149868,19,T,4
2022/02/18/18:26:25.068857,559,1645226785,68091630,gps_data,42.337235,-71.09255833333333,13.5,327613.71006540686,4689340.763149868,19,T,4
2022/02/18/18:26:26.107601,560,1645226786,105585336,gps_data,42.337235,-71.09255833333333,13.4,327613.71006540686,4689340.763149868,19,T,4
2022/02/18/18:26:27.082577,561,1645226787,80359220,gps_data,42.337235,-71.09255833333333,13.5,327613.71006540686,4689340.763149868,19,T,4
2022/02/18/18:26:28.100625,562,1645226788,98324537,gps_data,42.337235,-71.09255833333333,13.4,327613.71006540686,4689340.763149868,19,T,4
2022/02/18/18:26:29.076478,563,1645226789,75787782,gps_data,42.337235,-71.09255833333333,13.5,327613.71006540686,4689340.763149868,19,T,4
2022/02/18/18:26:30.091678,564,1645226790,91157674,gps_data,42.337235,-71.09255833333333,13.4,327613.71006540686,4689340.763149868,19,T,4
2022/02/18/18:26:31.067984,565,1645226791,65889596,gps_data,42.337235,-71.09255833333333,13.5,327613.71006540686,4689340.763149868,19,T,4
2022/02/18/18:26:32.104959,566,1645226792,104454517,gps_data,42.337235,-71.09255833333333,13.4,327613.71006540686,4689340.763149868,19,T,4
2022/02/18/18:26:33.080100,567,1645226793,77806949,gps_data,42.337235,-71.09255833333333,13.4,327613.71006540686,4689340.763149868,19,T,4
2022/02/18/18:26:34.116456,568,1645226794,114729166,gps_data,42.337235,-71.09255833333333,13.5,327613.71006540686,4689340.763149868,19,T,4
2022/02/18/18:26:35.076440,569,1645226795,73738574,gps_data,42.337235,-71.09255833333333,13.4,327613.71006540686,4689340.763149868,19,T,4
2022/02/18/18:26:36.117340,570,1645226796,115711688,gps_data,42.337235,-71.09255833333333,13.4,327613.71006540686,4689340.763149868,19,T,4
2022/02/18/18:26:37.075883,571,1645226797,73579311,gps_data,42.337235,-71.09255833333333,13.5,327613.71006540686,4689340.763149868,19,T,4
2022/02/18/18:26:38.085767,572,1645226798,83631038,gps_data,42.337235,-71.09255833333333,13.4,327613.71006540686,4689340.763149868,19,T,4
2022/02/18/18:26:39.081902,573,1645226799,79832315,gps_data,42.337235,-71.09255833333333,13.4,327613.71006540686,4689340.763149868,19,T,4
2022/02/18/18:26:40.101971,574,1645226800,99478960,gps_data,42.337235,-71.09255833333333,13.4,327613.71006540686,4689340.763149868,19,T,4
2022/02/18/18:26:41.073194,575,1645226801,72493791,gps_data,42.337235,-71.09255833333333,13.5,327613.71006540686,4689340.763149868,19,T,4
2022/02/18/18:26:42.115510,576,1645226802,112875699,gps_data,42.337235,-71.09255833333333,13.5,327613.71006540686,4689340.763149868,19,T,4
2022/02/18/18:26:43.092119,577,1645226803,89338302,gps_data,42.337235,-71.09255833333333,13.5,327613.71006540686,4689340.763149868,19,T,4
2022/02/18/18:26:44.106957,578,1645226804,105284929,gps_data,42.337235,-71.09255833333333,13.4,327613.71006540686,4689340.763149868,19,T,4
2022/02/18/18:26:45.084064,579,1645226805,82414865,gps_data,42.337235,-71.09255833333333,13.4,327613.71006540686,4689340.763149868,19,T,4
2022/02/18/18:26:46.096709,580,1645226806,95227956,gps_data,42.337235,-71.09255833333333,13.4,327613.71006540686,4689340.763149868,19,T,4
2022/02/18/18:26:47.076315,581,1645226807,74537515,gps_data,42.337235,-71.09255833333333,13.4,327613.71006540686,4689340.763149868,19,T,4
2022/02/18/18:26:48.094042,582,1645226808,92248916,gps_data,42.337235,-71.09255833333333,13.4,327613.71006540686,4689340.763149868,19,T,4
2022/02/18/18:26:49.069869,583,1645226809,68209409,gps_data,42.337235,-71.09255833333333,13.4,327613.71006540686,4689340.763149868,19,T,4
2022/02/18/18:26:50.105223,584,1645226810,103096723,gps_data,42.337235,-71.09255833333333,13.4,327613.71006540686,4689340.763149868,19,T,4
2022/02/18/18:26:51.079991,585,1645226811,77659130,gps_data,42.337235,-71.09255833333333,13.4,327613.71006540686,4689340.763149868,19,T,4
2022/02/18/18:26:52.097934,586,1645226812,95717906,gps_data,42.337235,-71.09255833333333,13.4,327613.71006540686,4689340.763149868,19,T,4
2022/02/18/18:26:53.074439,587,1645226813,72200536,gps_data,42.337235,-71.09255833333333,13.4,327613.71006540686,4689340.763149868,19,T,4
2022/02/18/18:26:54.105571,588,1645226814,105028629,gps_data,42.337235,-71.09255833333333,13.4,327613.71006540686,4689340.763149868,19,T,4
2022/02/18/18:26:55.082438,589,1645226815,81809043,gps_data,42.337235,-71.09255833333333,13.4,327613.71006540686,4689340.763149868,19,T,4
2022/02/18/18:26:56.095734,590,1645226816,93537092,gps_data,42.337235,-71.09255833333333,13.4,327613.71006540686,4689340.763149868,19,T,4
2022/02/18/18:26:57.069137,591,1645226817,67333936,gps_data,42.337235,-71.09255833333333,13.4,327613.71006540686,4689340.763149868,19,T,4
2022/02/18/18:26:58.106443,592,1645226818,104740381,gps_data,42.337235,-71.09255833333333,13.4,327613.71006540686,4689340.763149868,19,T,4
2022/02/18/18:26:59.082124,593,1645226819,81369638,gps_data,42.337235,-71.09255833333333,13.4,327613.71006540686,4689340.763149868,19,T,4
2022/02/18/18:27:00.110960,594,1645226820,108403682,gps_data,42.337235,-71.09255833333333,13.4,327613.71006540686,4689340.763149868,19,T,4
2022/02/18/18:27:01.081505,595,1645226821,78030586,gps_data,42.337235,-71.09255833333333,13.4,327613.71006540686,4689340.763149868,19,T,4
2022/02/18/18:27:02.097502,596,1645226822,93743562,gps_data,42.337235,-71.09255833333333,13.4,327613.71006540686,4689340.763149868,19,T,4
2022/02/18/18:27:03.072077,597,1645226823,69734811,gps_data,42.337235,-71.09255833333333,13.4,327613.71006540686,4689340.763149868,19,T,4
2022/02/18/18:27:04.110217,598,1645226824,108588218,gps_data,42.337235,-71.09255833333333,13.4,327613.71006540686,4689340.763149868,19,T,4
2022/02/18/18:27:05.082284,599,1645226825,80616235,gps_data,42.337235,-71.09255833333333,13.4,327613.71006540686,4689340.763149868,19,T,4
2022/02/18/18:27:06.095235,600,1645226826,94828844,gps_data,42.337235,-71.09255833333333,13.4,327613.71006540686,4689340.763149868,19,T,4
2022/02/18/18:27:07.066149,601,1645226827,65522193,gps_data,42.337235,-71.09255833333333,13.4,327613.71006540686,4689340.763149868,19,T,4
2022/02/18/18:27:08.104400,602,1645226828,102342367,gps_data,42.337235,-71.09255833333333,13.5,327613.71006540686,4689340.763149868,19,T,4
2022/02/18/18:27:09.082694,603,1645226829,79529047,gps_data,42.337235,-71.09255833333333,13.4,327613.71006540686,4689340.763149868,19,T,4
2022/02/18/18:27:10.111244,604,1645226830,109125614,gps_data,42.337235,-71.09255833333333,13.4,327613.71006540686,4689340.763149868,19,T,4
2022/02/18/18:27:11.070980,605,1645226831,69189786,gps_data,42.337235,-71.09255833333333,13.4,327613.71006540686,4689340.763149868,19,T,4
2022/02/18/18:27:12.108355,606,1645226832,106243848,gps_data,42.337235,-71.09255833333333,13.4,327613.71006540686,4689340.763149868,19,T,4
2022/02/18/18:27:13.078520,607,1645226833,78069686,gps_data,42.337235,-71.09255833333333,13.4,327613.71006540686,4689340.763149868,19,T,4
2022/02/18/18:27:14.096088,608,1645226834,93801498,gps_data,42.337235,-71.09255833333333,13.4,327613.71006540686,4689340.763149868,19,T,4
2022/02/18/18:27:15.070963,609,1645226835,67675113,gps_data,42.337235,-71.09255833333333,13.4,327613.71006540686,4689340.763149868,19,T,4
2022/02/18/18:27:16.104817,610,1645226836,104294300,gps_data,42.337235,-71.09255833333333,13.4,327613.71006540686,4689340.763149868,19,T,4
2022/02/18/18:27:17.080603,611,1645226837,79992771,gps_data,42.337235,-71.09255833333333,13.4,327613.71006540686,4689340.763149868,19,T,4
2022/02/18/18:27:18.114768,612,1645226838,114196300,gps_data,42.337235,-71.09255833333333,13.4,327613.71006540686,4689340.763149868,19,T,4
2022/02/18/18:27:19.085940,613,1645226839,83563089,gps_data,42.337235,-71.09255833333333,13.4,327613.71006540686,4689340.763149868,19,T,4
2022/02/18/18:27:20.100388,614,1645226840,97520589,gps_data,42.337235,-71.09255833333333,13.4,327613.71006540686,4689340.763149868,19,T,4
2022/02/18/18:27:21.090887,615,1645226841,88814496,gps_data,42.337235,-71.09255833333333,13.4,327613.71006540686,4689340.763149868,19,T,4
2022/02/18/18:27:22.104667,616,1645226842,103168487,gps_data,42.337235,-71.09255833333333,13.4,327613.71006540686,4689340.763149868,19,T,4
2022/02/18/18:27:23.083474,617,1645226843,82850933,gps_data,42.337235,-71.09255833333333,13.4,327613.71006540686,4689340.763149868,19,T,4
2022/02/18/18:27:24.098643,618,1645226844,95317840,gps_data,42.337235,-71.09255833333333,13.4,327613.71006540686,4689340.763149868,19,T,4
2022/02/18/18:27:25.071651,619,1645226845,68828105,gps_data,42.337235,-71.09255833333333,13.4,327613.71006540686,4689340.763149868,19,T,4
2022/02/18/18:27:26.089923,620,1645226846,89462041,gps_data,42.337235,-71.09255833333333,13.4,327613.71006540686,4689340.763149868,19,T,4
2022/02/18/18:27:27.079873,621,1645226847,78399181,gps_data,42.337235,-71.09255833333333,13.4,327613.71006540686,4689340.763149868,19,T,4
2022/02/18/18:27:28.118858,622,1645226848,116502523,gps_data,42.337235,-71.09255833333333,13.4,327613.71006540686,4689340.763149868,19,T,4
2022/02/18/18:27:29.073303,623,1645226849,71816444,gps_data,42.337235,-71.09255833333333,13.4,327613.71006540686,4689340.763149868,19,T,4
2022/02/18/18:27:30.100406,624,1645226850,99914550,gps_data,42.337235,-71.09255833333333,13.4,327613.71006540686,4689340.763149868,19,T,4
2022/02/18/18:27:31.074699,625,1645226851,74016571,gps_data,42.337235,-71.09255833333333,13.4,327613.71006540686,4689340.763149868,19,T,4
2022/02/18/18:27:32.109989,626,1645226852,106663227,gps_data,42.337235,-71.09255833333333,13.4,327613.71006540686,4689340.763149868,19,T,4
2022/02/18/18:27:33.077130,627,1645226853,76525926,gps_data,42.337235,-71.09255833333333,13.4,327613.71006540686,4689340.763149868,19,T,4
2022/02/18/18:27:34.111300,628,1645226854,108660459,gps_data,42.337235,-71.09255833333333,13.4,327613.71006540686,4689340.763149868,19,T,4
2022/02/18/18:27:35.076923,629,1645226855,75889825,gps_data,42.337235,-71.09255833333333,13.4,327613.71006540686,4689340.763149868,19,T,4
2022/02/18/18:27:36.117969,630,1645226856,115547657,gps_data,42.337235,-71.09255833333333,13.4,327613.71006540686,4689340.763149868,19,T,4
2022/02/18/18:27:37.072806,631,1645226857,70470809,gps_data,42.337235,-71.09255833333333,13.4,327613.71006540686,4689340.763149868,19,T,4
2022/02/18/18:27:38.112217,632,1645226858,110302925,gps_data,42.337235,-71.09255833333333,13.4,327613.71006540686,4689340.763149868,19,T,4
2022/02/18/18:27:39.091484,633,1645226859,90006113,gps_data,42.337235,-71.09255833333333,13.4,327613.71006540686,4689340.763149868,19,T,4
2022/02/18/18:27:40.102057,634,1645226860,100497484,gps_data,42.337235,-71.09255833333333,13.4,327613.71006540686,4689340.763149868,19,T,4
2022/02/18/18:27:41.074226,635,1645226861,72630882,gps_data,42.337235,-71.09255833333333,13.4,327613.71006540686,4689340.763149868,19,T,4
2022/02/18/18:27:42.103923,636,1645226862,101910352,gps_data,42.337235,-71.09255833333333,13.4,327613.71006540686,4689340.763149868,19,T,4
2022/02/18/18:27:43.078060,637,1645226863,77551126,gps_data,42.337235,-71.09255833333333,13.4,327613.71006540686,4689340.763149868,19,T,4
2022/02/18/18:27:44.114766,638,1645226864,112104654,gps_data,42.337235,-71.09255833333333,13.4,327613.71006540686,4689340.763149868,19,T,4
2022/02/18/18:27:45.083477,639,1645226865,82654953,gps_data,42.337235,-71.09255833333333,13.4,327613.71006540686,4689340.763149868,19,T,4
2022/02/18/18:27:46.097474,640,1645226866,96021175,gps_data,42.337235,-71.09255833333333,13.4,327613.71006540686,4689340.763149868,19,T,4
2022/02/18/18:27:47.077226,641,1645226867,74572563,gps_data,42.337235,-71.09255833333333,13.4,327613.71006540686,4689340.763149868,19,T,4
2022/02/18/18:27:48.112276,642,1645226868,110088586,gps_data,42.337235,-71.09255833333333,13.4,327613.71006540686,4689340.763149868,19,T,5
2022/02/18/18:27:49.083783,643,1645226869,81426143,gps_data,42.337235,-71.09255833333333,13.4,327613.71006540686,4689340.763149868,19,T,5
2022/02/18/18:27:50.116847,644,1645226870,115078210,gps_data,42.337235,-71.09255833333333,13.4,327613.71006540686,4689340.763149868,19,T,5
2022/02/18/18:27:51.075616,645,1645226871,74056148,gps_data,42.337235,-71.09255833333333,13.4,327613.71006540686,4689340.763149868,19,T,5
2022/02/18/18:27:52.107399,646,1645226872,104679822,gps_data,42.337235,-71.09255833333333,13.4,327613.71006540686,4689340.763149868,19,T,5
2022/02/18/18:27:53.085275,647,1645226873,83679676,gps_data,42.337235,-71.09255833333333,13.4,327613.71006540686,4689340.763149868,19,T,5
